[
  {
    "COUNTRY": "AD",
    "LATITUDE": 42.546245,
    "LONGITUDE": 1.601554,
    "NAME": "ANDORRE"
  },
  {
    "COUNTRY": "AE",
    "LATITUDE": 23.424076,
    "LONGITUDE": 53.847818,
    "NAME": "EMIRATS ARABES UNIS"
  },
  {
    "COUNTRY": "AF",
    "LATITUDE": 33.93911,
    "LONGITUDE": 67.709953,
    "NAME": "AFGHANISTAN"
  },
  {
    "COUNTRY": "AG",
    "LATITUDE": 17.060816,
    "LONGITUDE": -61.796428,
    "NAME": "ANTIGUA AND BARBUDA"
  },
  {
    "COUNTRY": "AI",
    "LATITUDE": 18.220554,
    "LONGITUDE": -63.068615,
    "NAME": "ANGUILLA"
  },
  {
    "COUNTRY": "AL",
    "LATITUDE": 41.153332,
    "LONGITUDE": 20.168331,
    "NAME": "ALBANIE"
  },
  {
    "COUNTRY": "AM",
    "LATITUDE": 40.069099,
    "LONGITUDE": 45.038189,
    "NAME": "ARMENIE"
  },
  {
    "COUNTRY": "AN",
    "LATITUDE": 12.226079,
    "LONGITUDE": -69.060087,
    "NAME": "NETHERLANDS ANTILLES"
  },
  {
    "COUNTRY": "AO",
    "LATITUDE": -11.202692,
    "LONGITUDE": 17.873887,
    "NAME": "ANGOLA"
  },
  {
    "COUNTRY": "AQ",
    "LATITUDE": -75.250973,
    "LONGITUDE": -0.071389,
    "NAME": "ANTARCTICA"
  },
  {
    "COUNTRY": "AR",
    "LATITUDE": -38.416097,
    "LONGITUDE": -63.616672,
    "NAME": "ARGENTINE"
  },
  {
    "COUNTRY": "AS",
    "LATITUDE": -14.270972,
    "LONGITUDE": -170.132217,
    "NAME": "AMERICAN SAMOA"
  },
  {
    "COUNTRY": "AT",
    "LATITUDE": 47.516231,
    "LONGITUDE": 14.550072,
    "NAME": "AUTRICHE"
  },
  {
    "COUNTRY": "AU",
    "LATITUDE": -25.274398,
    "LONGITUDE": 133.775136,
    "NAME": "AUSTRALIE"
  },
  {
    "COUNTRY": "AW",
    "LATITUDE": 12.52111,
    "LONGITUDE": -69.968338,
    "NAME": "ARUBA"
  },
  {
    "COUNTRY": "AZ",
    "LATITUDE": 40.143105,
    "LONGITUDE": 47.576927,
    "NAME": "AZERBAIDJAN"
  },
  {
    "COUNTRY": "BA",
    "LATITUDE": 43.915886,
    "LONGITUDE": 17.679076,
    "NAME": "BOSNIE-HERZEGOVINE"
  },
  {
    "COUNTRY": "BB",
    "LATITUDE": 13.193887,
    "LONGITUDE": -59.543198,
    "NAME": "BARBADOS"
  },
  {
    "COUNTRY": "BD",
    "LATITUDE": 23.684994,
    "LONGITUDE": 90.356331,
    "NAME": "BANGLADESH"
  },
  {
    "COUNTRY": "BE",
    "LATITUDE": 50.503887,
    "LONGITUDE": 4.469936,
    "NAME": "BELGIQUE"
  },
  {
    "COUNTRY": "BF",
    "LATITUDE": 12.238333,
    "LONGITUDE": -1.561593,
    "NAME": "BURKINA"
  },
  {
    "COUNTRY": "BG",
    "LATITUDE": 42.733883,
    "LONGITUDE": 25.48583,
    "NAME": "BULGARIE"
  },
  {
    "COUNTRY": "BH",
    "LATITUDE": 25.930414,
    "LONGITUDE": 50.637772,
    "NAME": "BAHREIN"
  },
  {
    "COUNTRY": "BI",
    "LATITUDE": -3.373056,
    "LONGITUDE": 29.918886,
    "NAME": "BURUNDI"
  },
  {
    "COUNTRY": "BJ",
    "LATITUDE": 9.30769,
    "LONGITUDE": 2.315834,
    "NAME": "BENIN"
  },
  {
    "COUNTRY": "BM",
    "LATITUDE": 32.321384,
    "LONGITUDE": -64.75737,
    "NAME": "BERMUDA"
  },
  {
    "COUNTRY": "BN",
    "LATITUDE": 4.535277,
    "LONGITUDE": 114.727669,
    "NAME": "BRUNEI"
  },
  {
    "COUNTRY": "BO",
    "LATITUDE": -16.290154,
    "LONGITUDE": -63.588653,
    "NAME": "BOLIVIE"
  },
  {
    "COUNTRY": "BR",
    "LATITUDE": -14.235004,
    "LONGITUDE": -51.92528,
    "NAME": "BRESIL"
  },
  {
    "COUNTRY": "BS",
    "LATITUDE": 25.03428,
    "LONGITUDE": -77.39628,
    "NAME": "BAHAMAS"
  },
  {
    "COUNTRY": "BT",
    "LATITUDE": 27.514162,
    "LONGITUDE": 90.433601,
    "NAME": "BHUTAN"
  },
  {
    "COUNTRY": "BV",
    "LATITUDE": -54.423199,
    "LONGITUDE": 3.413194,
    "NAME": "BOUVET ISLAND"
  },
  {
    "COUNTRY": "BW",
    "LATITUDE": -22.328474,
    "LONGITUDE": 24.684866,
    "NAME": "BOTSWANA"
  },
  {
    "COUNTRY": "BY",
    "LATITUDE": 53.709807,
    "LONGITUDE": 27.953389,
    "NAME": "BIELORUSSIE"
  },
  {
    "COUNTRY": "BZ",
    "LATITUDE": 17.189877,
    "LONGITUDE": -88.49765,
    "NAME": "BELIZE"
  },
  {
    "COUNTRY": "CA",
    "LATITUDE": 56.130366,
    "LONGITUDE": -106.346771,
    "NAME": "CANADA"
  },
  {
    "COUNTRY": "CC",
    "LATITUDE": -12.164165,
    "LONGITUDE": 96.870956,
    "NAME": "COCOS [KEELING] ISLANDS"
  },
  {
    "COUNTRY": "CD",
    "LATITUDE": -4.038333,
    "LONGITUDE": 21.758664,
    "NAME": "CONGO (REP. DEMOCRAT.)"
  },
  {
    "COUNTRY": "CF",
    "LATITUDE": 6.611111,
    "LONGITUDE": 20.939444,
    "NAME": "CENTRAFRIQUE (REP.)"
  },
  {
    "COUNTRY": "CG",
    "LATITUDE": -0.228021,
    "LONGITUDE": 15.827659,
    "NAME": "CONGO"
  },
  {
    "COUNTRY": "CH",
    "LATITUDE": 46.818188,
    "LONGITUDE": 8.227512,
    "NAME": "SUISSE"
  },
  {
    "COUNTRY": "CI",
    "LATITUDE": 7.539989,
    "LONGITUDE": -5.54708,
    "NAME": "COTE D'IVOIRE"
  },
  {
    "COUNTRY": "CK",
    "LATITUDE": -21.236736,
    "LONGITUDE": -159.777671,
    "NAME": "COOK ISLANDS"
  },
  {
    "COUNTRY": "CL",
    "LATITUDE": -35.675147,
    "LONGITUDE": -71.542969,
    "NAME": "CHILI"
  },
  {
    "COUNTRY": "CM",
    "LATITUDE": 7.369722,
    "LONGITUDE": 12.354722,
    "NAME": "CAMEROUN"
  },
  {
    "COUNTRY": "CN",
    "LATITUDE": 35.86166,
    "LONGITUDE": 104.195397,
    "NAME": "CHINE"
  },
  {
    "COUNTRY": "CO",
    "LATITUDE": 4.570868,
    "LONGITUDE": -74.297333,
    "NAME": "COLOMBIE"
  },
  {
    "COUNTRY": "CR",
    "LATITUDE": 9.748917,
    "LONGITUDE": -83.753428,
    "NAME": "COSTA RICA"
  },
  {
    "COUNTRY": "CU",
    "LATITUDE": 21.521757,
    "LONGITUDE": -77.781167,
    "NAME": "CUBA"
  },
  {
    "COUNTRY": "CV",
    "LATITUDE": 16.002082,
    "LONGITUDE": -24.013197,
    "NAME": "CAP-VERT"
  },
  {
    "COUNTRY": "CX",
    "LATITUDE": -10.447525,
    "LONGITUDE": 105.690449,
    "NAME": "CHRISTMAS ISLAND"
  },
  {
    "COUNTRY": "CY",
    "LATITUDE": 35.126413,
    "LONGITUDE": 33.429859,
    "NAME": "CHYPRE"
  },
  {
    "COUNTRY": "CZ",
    "LATITUDE": 49.817492,
    "LONGITUDE": 15.472962,
    "NAME": "TCHEQUE (REP.)"
  },
  {
    "COUNTRY": "DE",
    "LATITUDE": 51.165691,
    "LONGITUDE": 10.451526,
    "NAME": "ALLEMAGNE"
  },
  {
    "COUNTRY": "DJ",
    "LATITUDE": 11.825138,
    "LONGITUDE": 42.590275,
    "NAME": "DJIBOUTI"
  },
  {
    "COUNTRY": "DK",
    "LATITUDE": 56.26392,
    "LONGITUDE": 9.501785,
    "NAME": "DANEMARK"
  },
  {
    "COUNTRY": "DM",
    "LATITUDE": 15.414999,
    "LONGITUDE": -61.370976,
    "NAME": "DOMINICA"
  },
  {
    "COUNTRY": "DO",
    "LATITUDE": 18.735693,
    "LONGITUDE": -70.162651,
    "NAME": "DOMINICAINE (REP.)"
  },
  {
    "COUNTRY": "DZ",
    "LATITUDE": 28.033886,
    "LONGITUDE": 1.659626,
    "NAME": "ALGERIE"
  },
  {
    "COUNTRY": "EC",
    "LATITUDE": -1.831239,
    "LONGITUDE": -78.183406,
    "NAME": "EQUATEUR"
  },
  {
    "COUNTRY": "EE",
    "LATITUDE": 58.595272,
    "LONGITUDE": 25.013607,
    "NAME": "ESTONIE"
  },
  {
    "COUNTRY": "EG",
    "LATITUDE": 26.820553,
    "LONGITUDE": 30.802498,
    "NAME": "EGYPTE"
  },
  {
    "COUNTRY": "EH",
    "LATITUDE": 24.215527,
    "LONGITUDE": -12.885834,
    "NAME": "WESTERN SAHARA"
  },
  {
    "COUNTRY": "ER",
    "LATITUDE": 15.179384,
    "LONGITUDE": 39.782334,
    "NAME": "ERITREA"
  },
  {
    "COUNTRY": "ES",
    "LATITUDE": 40.463667,
    "LONGITUDE": -3.74922,
    "NAME": "ESPAGNE"
  },
  {
    "COUNTRY": "ET",
    "LATITUDE": 9.145,
    "LONGITUDE": 40.489673,
    "NAME": "ETHIOPIE"
  },
  {
    "COUNTRY": "FI",
    "LATITUDE": 61.92411,
    "LONGITUDE": 25.748151,
    "NAME": "FINLANDE"
  },
  {
    "COUNTRY": "FJ",
    "LATITUDE": -16.578193,
    "LONGITUDE": 179.414413,
    "NAME": "FIDJI"
  },
  {
    "COUNTRY": "FK",
    "LATITUDE": -51.796253,
    "LONGITUDE": -59.523613,
    "NAME": "FALKLAND ISLANDS [ISLAS MALVINAS]"
  },
  {
    "COUNTRY": "FM",
    "LATITUDE": 7.425554,
    "LONGITUDE": 150.550812,
    "NAME": "MICRONESIA"
  },
  {
    "COUNTRY": "FO",
    "LATITUDE": 61.892635,
    "LONGITUDE": -6.911806,
    "NAME": "FAROE ISLANDS"
  },
  {
    "COUNTRY": "FR",
    "LATITUDE": 46.227638,
    "LONGITUDE": 2.213749,
    "NAME": "FRANCE"
  },
  {
    "COUNTRY": "GA",
    "LATITUDE": -0.803689,
    "LONGITUDE": 11.609444,
    "NAME": "GABON"
  },
  {
    "COUNTRY": "GB",
    "LATITUDE": 55.378051,
    "LONGITUDE": -3.435973,
    "NAME": "ROYAUME-UNI"
  },
  {
    "COUNTRY": "GD",
    "LATITUDE": 12.262776,
    "LONGITUDE": -61.604171,
    "NAME": "GRENADA"
  },
  {
    "COUNTRY": "GE",
    "LATITUDE": 42.315407,
    "LONGITUDE": 43.356892,
    "NAME": "GEORGIE"
  },
  {
    "COUNTRY": "GF",
    "LATITUDE": 3.933889,
    "LONGITUDE": -53.125782,
    "NAME": "FRENCH GUIANA"
  },
  {
    "COUNTRY": "GG",
    "LATITUDE": 49.465691,
    "LONGITUDE": -2.585278,
    "NAME": "GUERNSEY"
  },
  {
    "COUNTRY": "GH",
    "LATITUDE": 7.946527,
    "LONGITUDE": -1.023194,
    "NAME": "GHANA"
  },
  {
    "COUNTRY": "GI",
    "LATITUDE": 36.137741,
    "LONGITUDE": -5.345374,
    "NAME": "GIBRALTAR"
  },
  {
    "COUNTRY": "GL",
    "LATITUDE": 71.706936,
    "LONGITUDE": -42.604303,
    "NAME": "GREENLAND"
  },
  {
    "COUNTRY": "GM",
    "LATITUDE": 13.443182,
    "LONGITUDE": -15.310139,
    "NAME": "GAMBIA"
  },
  {
    "COUNTRY": "GN",
    "LATITUDE": 9.945587,
    "LONGITUDE": -9.696645,
    "NAME": "GUINEE"
  },
  {
    "COUNTRY": "GP",
    "LATITUDE": 16.995971,
    "LONGITUDE": -62.067641,
    "NAME": "GUADELOUPE"
  },
  {
    "COUNTRY": "GQ",
    "LATITUDE": 1.650801,
    "LONGITUDE": 10.267895,
    "NAME": "GUINEE-EQUATORIALE"
  },
  {
    "COUNTRY": "GR",
    "LATITUDE": 39.074208,
    "LONGITUDE": 21.824312,
    "NAME": "GRECE"
  },
  {
    "COUNTRY": "GS",
    "LATITUDE": -54.429579,
    "LONGITUDE": -36.587909,
    "NAME": "SOUTH GEORGIA AND THE SOUTH SANDWICH ISLANDS"
  },
  {
    "COUNTRY": "GT",
    "LATITUDE": 15.783471,
    "LONGITUDE": -90.230759,
    "NAME": "GUATEMALA"
  },
  {
    "COUNTRY": "GU",
    "LATITUDE": 13.444304,
    "LONGITUDE": 144.793731,
    "NAME": "GUAM"
  },
  {
    "COUNTRY": "GW",
    "LATITUDE": 11.803749,
    "LONGITUDE": -15.180413,
    "NAME": "GUINEE-BISSAO"
  },
  {
    "COUNTRY": "GY",
    "LATITUDE": 4.860416,
    "LONGITUDE": -58.93018,
    "NAME": "GUYANA"
  },
  {
    "COUNTRY": "GZ",
    "LATITUDE": 31.354676,
    "LONGITUDE": 34.308825,
    "NAME": "GAZA STRIP"
  },
  {
    "COUNTRY": "HK",
    "LATITUDE": 22.396428,
    "LONGITUDE": 114.109497,
    "NAME": "HONG KONG"
  },
  {
    "COUNTRY": "HM",
    "LATITUDE": -53.08181,
    "LONGITUDE": 73.504158,
    "NAME": "HEARD ISLAND AND MCDONALD ISLANDS"
  },
  {
    "COUNTRY": "HN",
    "LATITUDE": 15.199999,
    "LONGITUDE": -86.241905,
    "NAME": "HONDURAS"
  },
  {
    "COUNTRY": "HR",
    "LATITUDE": 45.1,
    "LONGITUDE": 15.2,
    "NAME": "CROATIE"
  },
  {
    "COUNTRY": "HT",
    "LATITUDE": 18.971187,
    "LONGITUDE": -72.285215,
    "NAME": "HAITI"
  },
  {
    "COUNTRY": "HU",
    "LATITUDE": 47.162494,
    "LONGITUDE": 19.503304,
    "NAME": "HONGRIE"
  },
  {
    "COUNTRY": "ID",
    "LATITUDE": -0.789275,
    "LONGITUDE": 113.921327,
    "NAME": "INDONESIE"
  },
  {
    "COUNTRY": "IE",
    "LATITUDE": 53.41291,
    "LONGITUDE": -8.24389,
    "NAME": "IRLANDE"
  },
  {
    "COUNTRY": "IL",
    "LATITUDE": 31.046051,
    "LONGITUDE": 34.851612,
    "NAME": "ISRAEL"
  },
  {
    "COUNTRY": "IM",
    "LATITUDE": 54.236107,
    "LONGITUDE": -4.548056,
    "NAME": "ISLE OF MAN"
  },
  {
    "COUNTRY": "IN",
    "LATITUDE": 20.593684,
    "LONGITUDE": 78.96288,
    "NAME": "INDE"
  },
  {
    "COUNTRY": "IO",
    "LATITUDE": -6.343194,
    "LONGITUDE": 71.876519,
    "NAME": "BRITISH INDIAN OCEAN TERRITORY"
  },
  {
    "COUNTRY": "IQ",
    "LATITUDE": 33.223191,
    "LONGITUDE": 43.679291,
    "NAME": "IRAK"
  },
  {
    "COUNTRY": "IR",
    "LATITUDE": 32.427908,
    "LONGITUDE": 53.688046,
    "NAME": "IRAN"
  },
  {
    "COUNTRY": "IS",
    "LATITUDE": 64.963051,
    "LONGITUDE": -19.020835,
    "NAME": "ISLANDE"
  },
  {
    "COUNTRY": "IT",
    "LATITUDE": 41.87194,
    "LONGITUDE": 12.56738,
    "NAME": "ITALIE"
  },
  {
    "COUNTRY": "JE",
    "LATITUDE": 49.214439,
    "LONGITUDE": -2.13125,
    "NAME": "JERSEY"
  },
  {
    "COUNTRY": "JM",
    "LATITUDE": 18.109581,
    "LONGITUDE": -77.297508,
    "NAME": "JAMAIQUE"
  },
  {
    "COUNTRY": "JO",
    "LATITUDE": 30.585164,
    "LONGITUDE": 36.238414,
    "NAME": "JORDANIE"
  },
  {
    "COUNTRY": "JP",
    "LATITUDE": 36.204824,
    "LONGITUDE": 138.252924,
    "NAME": "JAPON"
  },
  {
    "COUNTRY": "KE",
    "LATITUDE": -0.023559,
    "LONGITUDE": 37.906193,
    "NAME": "KENYA"
  },
  {
    "COUNTRY": "KG",
    "LATITUDE": 41.20438,
    "LONGITUDE": 74.766098,
    "NAME": "KYRGYZSTAN"
  },
  {
    "COUNTRY": "KH",
    "LATITUDE": 12.565679,
    "LONGITUDE": 104.990963,
    "NAME": "CAMBODGE"
  },
  {
    "COUNTRY": "KI",
    "LATITUDE": -3.370417,
    "LONGITUDE": -168.734039,
    "NAME": "KIRIBATI"
  },
  {
    "COUNTRY": "KM",
    "LATITUDE": -11.875001,
    "LONGITUDE": 43.872219,
    "NAME": "COMORES"
  },
  {
    "COUNTRY": "KN",
    "LATITUDE": 17.357822,
    "LONGITUDE": -62.782998,
    "NAME": "SAINT KITTS AND NEVIS"
  },
  {
    "COUNTRY": "KP",
    "LATITUDE": 40.339852,
    "LONGITUDE": 127.510093,
    "NAME": "NORTH KOREA"
  },
  {
    "COUNTRY": "KR",
    "LATITUDE": 35.907757,
    "LONGITUDE": 127.766922,
    "NAME": "COREE DU SUD"
  },
  {
    "COUNTRY": "KW",
    "LATITUDE": 29.31166,
    "LONGITUDE": 47.481766,
    "NAME": "KOWEIT"
  },
  {
    "COUNTRY": "KY",
    "LATITUDE": 19.513469,
    "LONGITUDE": -80.566956,
    "NAME": "CAYMAN ISLANDS"
  },
  {
    "COUNTRY": "KZ",
    "LATITUDE": 48.019573,
    "LONGITUDE": 66.923684,
    "NAME": "KAZAKHSTAN"
  },
  {
    "COUNTRY": "LA",
    "LATITUDE": 19.85627,
    "LONGITUDE": 102.495496,
    "NAME": "LAOS"
  },
  {
    "COUNTRY": "LB",
    "LATITUDE": 33.854721,
    "LONGITUDE": 35.862285,
    "NAME": "LIBAN"
  },
  {
    "COUNTRY": "LC",
    "LATITUDE": 13.909444,
    "LONGITUDE": -60.978893,
    "NAME": "SAINTE-LUCIE"
  },
  {
    "COUNTRY": "LI",
    "LATITUDE": 47.166,
    "LONGITUDE": 9.555373,
    "NAME": "LIECHTENSTEIN"
  },
  {
    "COUNTRY": "LK",
    "LATITUDE": 7.873054,
    "LONGITUDE": 80.771797,
    "NAME": "SRI LANKA"
  },
  {
    "COUNTRY": "LR",
    "LATITUDE": 6.428055,
    "LONGITUDE": -9.429499,
    "NAME": "LIBERIA"
  },
  {
    "COUNTRY": "LS",
    "LATITUDE": -29.609988,
    "LONGITUDE": 28.233608,
    "NAME": "LESOTHO"
  },
  {
    "COUNTRY": "LT",
    "LATITUDE": 55.169438,
    "LONGITUDE": 23.881275,
    "NAME": "LITUANIE"
  },
  {
    "COUNTRY": "LU",
    "LATITUDE": 49.815273,
    "LONGITUDE": 6.129583,
    "NAME": "LUXEMBOURG"
  },
  {
    "COUNTRY": "LV",
    "LATITUDE": 56.879635,
    "LONGITUDE": 24.603189,
    "NAME": "LETTONIE"
  },
  {
    "COUNTRY": "LY",
    "LATITUDE": 26.3351,
    "LONGITUDE": 17.228331,
    "NAME": "LIBYE"
  },
  {
    "COUNTRY": "MA",
    "LATITUDE": 31.791702,
    "LONGITUDE": -7.09262,
    "NAME": "MAROC"
  },
  {
    "COUNTRY": "MC",
    "LATITUDE": 43.750298,
    "LONGITUDE": 7.412841,
    "NAME": "MONACO"
  },
  {
    "COUNTRY": "MD",
    "LATITUDE": 47.411631,
    "LONGITUDE": 28.369885,
    "NAME": "MOLDAVIE"
  },
  {
    "COUNTRY": "ME",
    "LATITUDE": 42.708678,
    "LONGITUDE": 19.37439,
    "NAME": "MONTENEGRO"
  },
  {
    "COUNTRY": "MG",
    "LATITUDE": -18.766947,
    "LONGITUDE": 46.869107,
    "NAME": "MADAGASCAR"
  },
  {
    "COUNTRY": "MH",
    "LATITUDE": 7.131474,
    "LONGITUDE": 171.184478,
    "NAME": "MARSHALL ISLANDS"
  },
  {
    "COUNTRY": "MK",
    "LATITUDE": 41.608635,
    "LONGITUDE": 21.745275,
    "NAME": "MACEDOINE (A.R.Y.M.)"
  },
  {
    "COUNTRY": "ML",
    "LATITUDE": 17.570692,
    "LONGITUDE": -3.996166,
    "NAME": "MALI"
  },
  {
    "COUNTRY": "MM",
    "LATITUDE": 21.913965,
    "LONGITUDE": 95.956223,
    "NAME": "BIRMANIE"
  },
  {
    "COUNTRY": "MN",
    "LATITUDE": 46.862496,
    "LONGITUDE": 103.846656,
    "NAME": "MONGOLIE"
  },
  {
    "COUNTRY": "MO",
    "LATITUDE": 22.198745,
    "LONGITUDE": 113.543873,
    "NAME": "MACAU"
  },
  {
    "COUNTRY": "MP",
    "LATITUDE": 17.33083,
    "LONGITUDE": 145.38469,
    "NAME": "NORTHERN MARIANA ISLANDS"
  },
  {
    "COUNTRY": "MQ",
    "LATITUDE": 14.641528,
    "LONGITUDE": -61.024174,
    "NAME": "MARTINIQUE"
  },
  {
    "COUNTRY": "MR",
    "LATITUDE": 21.00789,
    "LONGITUDE": -10.940835,
    "NAME": "MAURITANIE"
  },
  {
    "COUNTRY": "MS",
    "LATITUDE": 16.742498,
    "LONGITUDE": -62.187366,
    "NAME": "MONTSERRAT"
  },
  {
    "COUNTRY": "MT",
    "LATITUDE": 35.937496,
    "LONGITUDE": 14.375416,
    "NAME": "MALTE"
  },
  {
    "COUNTRY": "MU",
    "LATITUDE": -20.348404,
    "LONGITUDE": 57.552152,
    "NAME": "MAURICE"
  },
  {
    "COUNTRY": "MV",
    "LATITUDE": 3.202778,
    "LONGITUDE": 73.22068,
    "NAME": "MALDIVES"
  },
  {
    "COUNTRY": "MW",
    "LATITUDE": -13.254308,
    "LONGITUDE": 34.301525,
    "NAME": "MALAWI"
  },
  {
    "COUNTRY": "MX",
    "LATITUDE": 23.634501,
    "LONGITUDE": -102.552784,
    "NAME": "MEXIQUE"
  },
  {
    "COUNTRY": "MY",
    "LATITUDE": 4.210484,
    "LONGITUDE": 101.975766,
    "NAME": "MALAISIE"
  },
  {
    "COUNTRY": "MZ",
    "LATITUDE": -18.665695,
    "LONGITUDE": 35.529562,
    "NAME": "MOZAMBIQUE"
  },
  {
    "COUNTRY": "NA",
    "LATITUDE": -22.95764,
    "LONGITUDE": 18.49041,
    "NAME": "NAMIBIE"
  },
  {
    "COUNTRY": "NC",
    "LATITUDE": -20.904305,
    "LONGITUDE": 165.618042,
    "NAME": "NEW CALEDONIA"
  },
  {
    "COUNTRY": "NE",
    "LATITUDE": 17.607789,
    "LONGITUDE": 8.081666,
    "NAME": "NIGER"
  },
  {
    "COUNTRY": "NF",
    "LATITUDE": -29.040835,
    "LONGITUDE": 167.954712,
    "NAME": "NORFOLK ISLAND"
  },
  {
    "COUNTRY": "NG",
    "LATITUDE": 9.081999,
    "LONGITUDE": 8.675277,
    "NAME": "NIGERIA"
  },
  {
    "COUNTRY": "NI",
    "LATITUDE": 12.865416,
    "LONGITUDE": -85.207229,
    "NAME": "NICARAGUA"
  },
  {
    "COUNTRY": "NL",
    "LATITUDE": 52.132633,
    "LONGITUDE": 5.291266,
    "NAME": "PAYS-BAS"
  },
  {
    "COUNTRY": "NO",
    "LATITUDE": 60.472024,
    "LONGITUDE": 8.468946,
    "NAME": "NORVEGE"
  },
  {
    "COUNTRY": "NP",
    "LATITUDE": 28.394857,
    "LONGITUDE": 84.124008,
    "NAME": "NEPAL"
  },
  {
    "COUNTRY": "NR",
    "LATITUDE": -0.522778,
    "LONGITUDE": 166.931503,
    "NAME": "NAURU"
  },
  {
    "COUNTRY": "NU",
    "LATITUDE": -19.054445,
    "LONGITUDE": -169.867233,
    "NAME": "NIUE"
  },
  {
    "COUNTRY": "NZ",
    "LATITUDE": -40.900557,
    "LONGITUDE": 174.885971,
    "NAME": "NOUVELLE-ZELANDE"
  },
  {
    "COUNTRY": "OM",
    "LATITUDE": 21.512583,
    "LONGITUDE": 55.923255,
    "NAME": "OMAN"
  },
  {
    "COUNTRY": "PA",
    "LATITUDE": 8.537981,
    "LONGITUDE": -80.782127,
    "NAME": "PANAMA"
  },
  {
    "COUNTRY": "PE",
    "LATITUDE": -9.189967,
    "LONGITUDE": -75.015152,
    "NAME": "PEROU"
  },
  {
    "COUNTRY": "PF",
    "LATITUDE": -17.679742,
    "LONGITUDE": -149.406843,
    "NAME": "FRENCH POLYNESIA"
  },
  {
    "COUNTRY": "PG",
    "LATITUDE": -6.314993,
    "LONGITUDE": 143.95555,
    "NAME": "PAPOUASIE-NLE-GUINEE"
  },
  {
    "COUNTRY": "PH",
    "LATITUDE": 12.879721,
    "LONGITUDE": 121.774017,
    "NAME": "PHILIPPINES"
  },
  {
    "COUNTRY": "PK",
    "LATITUDE": 30.375321,
    "LONGITUDE": 69.345116,
    "NAME": "PAKISTAN"
  },
  {
    "COUNTRY": "PL",
    "LATITUDE": 51.919438,
    "LONGITUDE": 19.145136,
    "NAME": "POLOGNE"
  },
  {
    "COUNTRY": "PM",
    "LATITUDE": 46.941936,
    "LONGITUDE": -56.27111,
    "NAME": "SAINT PIERRE AND MIQUELON"
  },
  {
    "COUNTRY": "PN",
    "LATITUDE": -24.703615,
    "LONGITUDE": -127.439308,
    "NAME": "PITCAIRN ISLANDS"
  },
  {
    "COUNTRY": "PR",
    "LATITUDE": 18.220833,
    "LONGITUDE": -66.590149,
    "NAME": "PUERTO RICO"
  },
  {
    "COUNTRY": "PS",
    "LATITUDE": 31.952162,
    "LONGITUDE": 35.233154,
    "NAME": "PALESTINIAN TERRITORIES"
  },
  {
    "COUNTRY": "PT",
    "LATITUDE": 39.399872,
    "LONGITUDE": -8.224454,
    "NAME": "PORTUGAL"
  },
  {
    "COUNTRY": "PW",
    "LATITUDE": 7.51498,
    "LONGITUDE": 134.58252,
    "NAME": "PALAU"
  },
  {
    "COUNTRY": "PY",
    "LATITUDE": -23.442503,
    "LONGITUDE": -58.443832,
    "NAME": "PARAGUAY"
  },
  {
    "COUNTRY": "QA",
    "LATITUDE": 25.354826,
    "LONGITUDE": 51.183884,
    "NAME": "QATAR"
  },
  {
    "COUNTRY": "RE",
    "LATITUDE": -21.115141,
    "LONGITUDE": 55.536384,
    "NAME": "RÉUNION"
  },
  {
    "COUNTRY": "RO",
    "LATITUDE": 45.943161,
    "LONGITUDE": 24.96676,
    "NAME": "ROUMANIE"
  },
  {
    "COUNTRY": "RS",
    "LATITUDE": 44.016521,
    "LONGITUDE": 21.005859,
    "NAME": "SERBIE"
  },
  {
    "COUNTRY": "RU",
    "LATITUDE": 61.52401,
    "LONGITUDE": 105.318756,
    "NAME": "RUSSIE"
  },
  {
    "COUNTRY": "RW",
    "LATITUDE": -1.940278,
    "LONGITUDE": 29.873888,
    "NAME": "RWANDA"
  },
  {
    "COUNTRY": "SA",
    "LATITUDE": 23.885942,
    "LONGITUDE": 45.079162,
    "NAME": "ARABIE SAOUDITE"
  },
  {
    "COUNTRY": "SB",
    "LATITUDE": -9.64571,
    "LONGITUDE": 160.156194,
    "NAME": "SOLOMON ISLANDS"
  },
  {
    "COUNTRY": "SC",
    "LATITUDE": -4.679574,
    "LONGITUDE": 55.491977,
    "NAME": "SEYCHELLES"
  },
  {
    "COUNTRY": "SD",
    "LATITUDE": 12.862807,
    "LONGITUDE": 30.217636,
    "NAME": "SOUDAN DU SUD"
  },
  {
    "COUNTRY": "SE",
    "LATITUDE": 60.128161,
    "LONGITUDE": 18.643501,
    "NAME": "SUEDE"
  },
  {
    "COUNTRY": "SG",
    "LATITUDE": 1.352083,
    "LONGITUDE": 103.819836,
    "NAME": "SINGAPOUR"
  },
  {
    "COUNTRY": "SH",
    "LATITUDE": -24.143474,
    "LONGITUDE": -10.030696,
    "NAME": "SAINT HELENA"
  },
  {
    "COUNTRY": "SI",
    "LATITUDE": 46.151241,
    "LONGITUDE": 14.995463,
    "NAME": "SLOVENIE"
  },
  {
    "COUNTRY": "SJ",
    "LATITUDE": 77.553604,
    "LONGITUDE": 23.670272,
    "NAME": "SVALBARD AND JAN MAYEN"
  },
  {
    "COUNTRY": "SK",
    "LATITUDE": 48.669026,
    "LONGITUDE": 19.699024,
    "NAME": "SLOVAQUIE"
  },
  {
    "COUNTRY": "SL",
    "LATITUDE": 8.460555,
    "LONGITUDE": -11.779889,
    "NAME": "SIERRA LEONE"
  },
  {
    "COUNTRY": "SM",
    "LATITUDE": 43.94236,
    "LONGITUDE": 12.457777,
    "NAME": "SAN MARINO"
  },
  {
    "COUNTRY": "SN",
    "LATITUDE": 14.497401,
    "LONGITUDE": -14.452362,
    "NAME": "SENEGAL"
  },
  {
    "COUNTRY": "SO",
    "LATITUDE": 5.152149,
    "LONGITUDE": 46.199616,
    "NAME": "SOMALIA"
  },
  {
    "COUNTRY": "SR",
    "LATITUDE": 3.919305,
    "LONGITUDE": -56.027783,
    "NAME": "SURINAME"
  },
  {
    "COUNTRY": "ST",
    "LATITUDE": 0.18636,
    "LONGITUDE": 6.613081,
    "NAME": "SÃO TOMÉ AND PRÍNCIPE"
  },
  {
    "COUNTRY": "SV",
    "LATITUDE": 13.794185,
    "LONGITUDE": -88.89653,
    "NAME": "SALVADOR"
  },
  {
    "COUNTRY": "SY",
    "LATITUDE": 34.802075,
    "LONGITUDE": 38.996815,
    "NAME": "SYRIE"
  },
  {
    "COUNTRY": "SZ",
    "LATITUDE": -26.522503,
    "LONGITUDE": 31.465866,
    "NAME": "SWAZILAND"
  },
  {
    "COUNTRY": "TC",
    "LATITUDE": 21.694025,
    "LONGITUDE": -71.797928,
    "NAME": "TURKS AND CAICOS ISLANDS"
  },
  {
    "COUNTRY": "TD",
    "LATITUDE": 15.454166,
    "LONGITUDE": 18.732207,
    "NAME": "TCHAD"
  },
  {
    "COUNTRY": "TF",
    "LATITUDE": -49.280366,
    "LONGITUDE": 69.348557,
    "NAME": "FRENCH SOUTHERN TERRITORIES"
  },
  {
    "COUNTRY": "TG",
    "LATITUDE": 8.619543,
    "LONGITUDE": 0.824782,
    "NAME": "TOGO"
  },
  {
    "COUNTRY": "TH",
    "LATITUDE": 15.870032,
    "LONGITUDE": 100.992541,
    "NAME": "THAILANDE"
  },
  {
    "COUNTRY": "TJ",
    "LATITUDE": 38.861034,
    "LONGITUDE": 71.276093,
    "NAME": "TADJIKISTAN"
  },
  {
    "COUNTRY": "TK",
    "LATITUDE": -8.967363,
    "LONGITUDE": -171.855881,
    "NAME": "TOKELAU"
  },
  {
    "COUNTRY": "TL",
    "LATITUDE": -8.874217,
    "LONGITUDE": 125.727539,
    "NAME": "TIMOR-LESTE"
  },
  {
    "COUNTRY": "TM",
    "LATITUDE": 38.969719,
    "LONGITUDE": 59.556278,
    "NAME": "TURKMENISTAN"
  },
  {
    "COUNTRY": "TN",
    "LATITUDE": 33.886917,
    "LONGITUDE": 9.537499,
    "NAME": "TUNISIE"
  },
  {
    "COUNTRY": "TO",
    "LATITUDE": -21.178986,
    "LONGITUDE": -175.198242,
    "NAME": "TONGA"
  },
  {
    "COUNTRY": "TR",
    "LATITUDE": 38.963745,
    "LONGITUDE": 35.243322,
    "NAME": "TURQUIE"
  },
  {
    "COUNTRY": "TT",
    "LATITUDE": 10.691803,
    "LONGITUDE": -61.222503,
    "NAME": "TRINITE ET TOBAGO"
  },
  {
    "COUNTRY": "TV",
    "LATITUDE": -7.109535,
    "LONGITUDE": 177.64933,
    "NAME": "TUVALU"
  },
  {
    "COUNTRY": "TW",
    "LATITUDE": 23.69781,
    "LONGITUDE": 120.960515,
    "NAME": "TAIWAN"
  },
  {
    "COUNTRY": "TZ",
    "LATITUDE": -6.369028,
    "LONGITUDE": 34.888822,
    "NAME": "TANZANIE"
  },
  {
    "COUNTRY": "UA",
    "LATITUDE": 48.379433,
    "LONGITUDE": 31.16558,
    "NAME": "UKRAINE"
  },
  {
    "COUNTRY": "UG",
    "LATITUDE": 1.373333,
    "LONGITUDE": 32.290275,
    "NAME": "OUGANDA"
  },
  {
    "COUNTRY": "US",
    "LATITUDE": 37.09024,
    "LONGITUDE": -95.712891,
    "NAME": "ETATS-UNIS"
  },
  {
    "COUNTRY": "UY",
    "LATITUDE": -32.522779,
    "LONGITUDE": -55.765835,
    "NAME": "URUGUAY"
  },
  {
    "COUNTRY": "UZ",
    "LATITUDE": 41.377491,
    "LONGITUDE": 64.585262,
    "NAME": "OUZBEKISTAN"
  },
  {
    "COUNTRY": "VA",
    "LATITUDE": 41.902916,
    "LONGITUDE": 12.453389,
    "NAME": "SAINT-SIEGE"
  },
  {
    "COUNTRY": "VC",
    "LATITUDE": 12.984305,
    "LONGITUDE": -61.287228,
    "NAME": "SAINT VINCENT AND THE GRENADINES"
  },
  {
    "COUNTRY": "VE",
    "LATITUDE": 6.42375,
    "LONGITUDE": -66.58973,
    "NAME": "VENEZUELA"
  },
  {
    "COUNTRY": "VG",
    "LATITUDE": 18.420695,
    "LONGITUDE": -64.639968,
    "NAME": "BRITISH VIRGIN ISLANDS"
  },
  {
    "COUNTRY": "VI",
    "LATITUDE": 18.335765,
    "LONGITUDE": -64.896335,
    "NAME": "U.S. VIRGIN ISLANDS"
  },
  {
    "COUNTRY": "VN",
    "LATITUDE": 14.058324,
    "LONGITUDE": 108.277199,
    "NAME": "VIET-NAM"
  },
  {
    "COUNTRY": "VU",
    "LATITUDE": -15.376706,
    "LONGITUDE": 166.959158,
    "NAME": "VANUATU"
  },
  {
    "COUNTRY": "WF",
    "LATITUDE": -13.768752,
    "LONGITUDE": -177.156097,
    "NAME": "WALLIS AND FUTUNA"
  },
  {
    "COUNTRY": "WS",
    "LATITUDE": -13.759029,
    "LONGITUDE": -172.104629,
    "NAME": "SAMOA"
  },
  {
    "COUNTRY": "XK",
    "LATITUDE": 42.602636,
    "LONGITUDE": 20.902977,
    "NAME": "KOSOVO"
  },
  {
    "COUNTRY": "YE",
    "LATITUDE": 15.552727,
    "LONGITUDE": 48.516388,
    "NAME": "YEMEN"
  },
  {
    "COUNTRY": "YT",
    "LATITUDE": -12.8275,
    "LONGITUDE": 45.166244,
    "NAME": "MAYOTTE"
  },
  {
    "COUNTRY": "ZA",
    "LATITUDE": -30.559482,
    "LONGITUDE": 22.937506,
    "NAME": "AFRIQUE DU SUD"
  },
  {
    "COUNTRY": "ZM",
    "LATITUDE": -13.133897,
    "LONGITUDE": 27.849332,
    "NAME": "ZAMBIE"
  },
  {
    "COUNTRY": "ZW",
    "LATITUDE": -19.015438,
    "LONGITUDE": 29.154857,
    "NAME": "ZIMBABWE"
  }
]